[
  { "name": "washington", "lat": 38.889805, "lng": -77.009056, "zoom": 13 },
  { "name": "new_york", "lat": 40.73061, "lng": -73.935242, "zoom": 13 },
  { "name": "boston", "lat": 42.361145, "lng": -71.057083, "zoom": 13 },
  { "name": "los_angeles", "lat": 34.052235, "lng": -118.243683, "zoom": 13 },
  { "name": "chicago", "lat": 41.881832, "lng": -87.623177, "zoom": 13 },
  { "name": "philadelphia", "lat": 39.952583, "lng": -75.165222, "zoom": 13 },
  { "name": "honolulu", "lat": 21.315603, "lng": -157.858093, "zoom": 13 },
  { "name": "moscow", "lat": 55.75222, "lng": 37.61556, "zoom": 13 },
  { "name": "london", "lat": 51.509865, "lng": -0.118092, "zoom": 13 },
  { "name": "paris", "lat": 48.864716, "lng": 2.349014, "zoom": 13 },
  { "name": "berlin", "lat": 52.520008, "lng": 13.404954, "zoom": 13 },
  { "name": "beijing", "lat": 39.935539, "lng": 116.40564, "zoom": 13 },
  { "name": "new_delhi", "lat": 28.6448, "lng": 77.216721, "zoom": 13 },
  { "name": "islamabad", "lat": 33.738045, "lng": 73.084488, "zoom": 13 },
  { "name": "tokyo", "lat": 35.652832, "lng": 139.839478, "zoom": 13 },
  { "name": "pyongyang", "lat": 39.019444, "lng": 125.738052, "zoom": 13 },
  { "name": "seoul", "lat": 37.5326, "lng": 127.024612, "zoom": 13 },
  { "name": "teheran", "lat": 35.715298, "lng": 51.404343, "zoom": 13 },
  { "name": "tel_aviv", "lat": 32.109333, "lng": 34.855499, "zoom": 13 },
  { "name": "trinity", "lat": 33.6773, "lng": -106.4754, "zoom": 13 },
  { "name": "hiroshima", "lat": 34.383331, "lng": 132.449997, "zoom": 13 },
  { "name": "nagasaki", "lat": 32.764233, "lng": 129.872696, "zoom": 13 },
  { "name": "elugelab", "lat": 11.666664, "lng": 162.185499258, "zoom": 13 },
  { "name": "namu", "lat": 8.19416, "lng": 167.97637, "zoom": 13 },
  { "name": "sedan", "lat": 37.176833, "lng": -116.046561, "zoom": 13 },
  { "name": "tsar", "lat": 74.892097, "lng": 56.650174, "zoom": 13 }
]
